[{"name": "Altoona (Prairie Edge)", "operator": "Meta", "ticker": "META", "state": "IA", "lat": 41.65, "lon": -93.79, "mw": 200, "status": "operational"}, {"name": "Forest City", "operator": "Meta", "ticker": "META", "state": "NC", "lat": 35.33, "lon": -81.86, "mw": 200, "status": "operational"}, {"name": "Prineville", "operator": "Meta", "ticker": "META", "state": "OR", "lat": 44.3, "lon": -120.83, "mw": 300, "status": "operational"}, {"name": "Fort Worth (AllianceTexas)", "operator": "Meta", "ticker": "META", "state": "TX", "lat": 32.99, "lon": -97.27, "mw": 300, "status": "operational"}, {"name": "Clarksville", "operator": "Meta", "ticker": "META", "state": "TN", "lat": 36.52, "lon": -87.36, "mw": 200, "status": "operational"}, {"name": "New Albany (Etna)", "operator": "Meta", "ticker": "META", "state": "OH", "lat": 40.08, "lon": -82.67, "mw": 200, "status": "operational"}, {"name": "Gallatin", "operator": "Meta", "ticker": "META", "state": "TN", "lat": 36.39, "lon": -86.45, "mw": 200, "status": "operational"}, {"name": "Eagle Mountain", "operator": "Meta", "ticker": "META", "state": "UT", "lat": 40.31, "lon": -112.02, "mw": 300, "status": "operational"}, {"name": "Papillion", "operator": "Meta", "ticker": "META", "state": "NE", "lat": 41.15, "lon": -96.04, "mw": 200, "status": "operational"}, {"name": "Jeffersonville", "operator": "Meta", "ticker": "META", "state": "IN", "lat": 38.28, "lon": -85.73, "mw": 200, "status": "operational"}, {"name": "DeKalb", "operator": "Meta", "ticker": "META", "state": "IL", "lat": 41.93, "lon": -88.75, "mw": 200, "status": "operational"}, {"name": "Mesa", "operator": "Meta", "ticker": "META", "state": "AZ", "lat": 33.41, "lon": -111.83, "mw": 300, "status": "operational"}, {"name": "Hyperion (Richland Parish)", "operator": "Meta", "ticker": "META", "state": "LA", "lat": 32.4, "lon": -91.74, "mw": 100, "status": "under_construction"}, {"name": "The Dalles", "operator": "Google", "ticker": "GOOGL", "state": "OR", "lat": 45.6, "lon": -121.18, "mw": 200, "status": "operational"}, {"name": "Pryor Creek", "operator": "Google", "ticker": "GOOGL", "state": "OK", "lat": 36.31, "lon": -95.32, "mw": 150, "status": "operational"}, {"name": "Council Bluffs", "operator": "Google", "ticker": "GOOGL", "state": "IA", "lat": 41.26, "lon": -95.86, "mw": 200, "status": "operational"}, {"name": "Lenoir", "operator": "Google", "ticker": "GOOGL", "state": "NC", "lat": 35.91, "lon": -81.53, "mw": 150, "status": "operational"}, {"name": "Midlothian", "operator": "Google", "ticker": "GOOGL", "state": "TX", "lat": 32.48, "lon": -96.99, "mw": 200, "status": "operational"}, {"name": "Douglas County (Douglasville)", "operator": "Google", "ticker": "GOOGL", "state": "GA", "lat": 33.75, "lon": -84.75, "mw": 200, "status": "operational"}, {"name": "Berkeley County", "operator": "Google", "ticker": "GOOGL", "state": "SC", "lat": 33.19, "lon": -79.96, "mw": 200, "status": "operational"}, {"name": "Quincy (Columbia Basin)", "operator": "Google", "ticker": "GOOGL", "state": "WA", "lat": 47.23, "lon": -119.85, "mw": 200, "status": "operational"}, {"name": "Papillion (Sarpy County)", "operator": "Google", "ticker": "GOOGL", "state": "NE", "lat": 41.15, "lon": -96.04, "mw": 150, "status": "operational"}, {"name": "Henderson", "operator": "Google", "ticker": "GOOGL", "state": "NV", "lat": 36.04, "lon": -114.98, "mw": 150, "status": "operational"}, {"name": "De Soto (Kansas City)", "operator": "Google", "ticker": "GOOGL", "state": "KS", "lat": 38.98, "lon": -94.97, "mw": 150, "status": "operational"}, {"name": "Bridgeport (Paint Rock Valley)", "operator": "Google", "ticker": "GOOGL", "state": "AL", "lat": 34.72, "lon": -86.0, "mw": 150, "status": "operational"}, {"name": "Reno", "operator": "Google", "ticker": "GOOGL", "state": "NV", "lat": 39.5, "lon": -119.6, "mw": 200, "status": "under_construction"}, {"name": "Boydton", "operator": "Microsoft", "ticker": "MSFT", "state": "VA", "lat": 36.67, "lon": -78.39, "mw": 200, "status": "operational"}, {"name": "Quincy (Columbia Basin)", "operator": "Microsoft", "ticker": "MSFT", "state": "WA", "lat": 47.23, "lon": -119.85, "mw": 400, "status": "operational"}, {"name": "Des Moines / West Des Moines", "operator": "Microsoft", "ticker": "MSFT", "state": "IA", "lat": 41.58, "lon": -93.71, "mw": 300, "status": "operational"}, {"name": "Racine (Mt. Pleasant)", "operator": "Microsoft", "ticker": "MSFT", "state": "WI", "lat": 42.71, "lon": -87.89, "mw": 300, "status": "operational"}, {"name": "San Antonio", "operator": "Microsoft", "ticker": "MSFT", "state": "TX", "lat": 29.43, "lon": -98.49, "mw": 300, "status": "operational"}, {"name": "Chicago (North Chicago)", "operator": "Microsoft", "ticker": "MSFT", "state": "IL", "lat": 42.33, "lon": -87.85, "mw": 200, "status": "operational"}, {"name": "Cheyenne", "operator": "Microsoft", "ticker": "MSFT", "state": "WY", "lat": 41.14, "lon": -104.82, "mw": 200, "status": "operational"}, {"name": "Phoenix / Goodyear", "operator": "Microsoft", "ticker": "MSFT", "state": "AZ", "lat": 33.43, "lon": -112.36, "mw": 400, "status": "operational"}, {"name": "Northlake (Chicago suburb)", "operator": "Microsoft", "ticker": "MSFT", "state": "IL", "lat": 41.92, "lon": -87.9, "mw": 300, "status": "operational"}, {"name": "Catawba County", "operator": "Microsoft", "ticker": "MSFT", "state": "NC", "lat": 35.66, "lon": -81.22, "mw": 200, "status": "under_construction"}, {"name": "Boise", "operator": "Microsoft", "ticker": "MSFT", "state": "ID", "lat": 43.62, "lon": -116.2, "mw": 200, "status": "operational"}, {"name": "Ashburn (Loudoun)", "operator": "Amazon", "ticker": "AMZN", "state": "VA", "lat": 39.04, "lon": -77.49, "mw": 600, "status": "operational"}, {"name": "Sterling (Loudoun)", "operator": "Amazon", "ticker": "AMZN", "state": "VA", "lat": 39.0, "lon": -77.42, "mw": 400, "status": "operational"}, {"name": "Manassas (Prince William)", "operator": "Amazon", "ticker": "AMZN", "state": "VA", "lat": 38.75, "lon": -77.48, "mw": 400, "status": "operational"}, {"name": "Dublin / Columbus", "operator": "Amazon", "ticker": "AMZN", "state": "OH", "lat": 40.1, "lon": -83.07, "mw": 400, "status": "operational"}, {"name": "Boardman / Hermiston", "operator": "Amazon", "ticker": "AMZN", "state": "OR", "lat": 45.84, "lon": -119.69, "mw": 400, "status": "operational"}, {"name": "Hillsboro", "operator": "Amazon", "ticker": "AMZN", "state": "OR", "lat": 45.52, "lon": -122.99, "mw": 400, "status": "operational"}, {"name": "New Century (Kansas City)", "operator": "Amazon", "ticker": "AMZN", "state": "KS", "lat": 38.83, "lon": -94.9, "mw": 300, "status": "operational"}, {"name": "Clarksville (Austin Peay)", "operator": "Amazon", "ticker": "AMZN", "state": "TN", "lat": 36.53, "lon": -87.35, "mw": 300, "status": "under_construction"}, {"name": "Huntsville", "operator": "Amazon", "ticker": "AMZN", "state": "AL", "lat": 34.73, "lon": -86.59, "mw": 300, "status": "under_construction"}, {"name": "Maiden", "operator": "Apple", "ticker": "AAPL", "state": "NC", "lat": 35.57, "lon": -81.22, "mw": 200, "status": "operational"}, {"name": "Prineville", "operator": "Apple", "ticker": "AAPL", "state": "OR", "lat": 44.3, "lon": -120.83, "mw": 200, "status": "operational"}, {"name": "Waukee", "operator": "Apple", "ticker": "AAPL", "state": "IA", "lat": 41.61, "lon": -93.88, "mw": 200, "status": "operational"}, {"name": "Mesa", "operator": "Apple", "ticker": "AAPL", "state": "AZ", "lat": 33.4, "lon": -111.79, "mw": 200, "status": "operational"}, {"name": "Reno", "operator": "Apple", "ticker": "AAPL", "state": "NV", "lat": 39.5, "lon": -119.6, "mw": 200, "status": "operational"}, {"name": "Austin (Oracle HQ)", "operator": "Oracle", "ticker": "ORCL", "state": "TX", "lat": 30.27, "lon": -97.74, "mw": 200, "status": "operational"}, {"name": "Ashburn (OCI East)", "operator": "Oracle", "ticker": "ORCL", "state": "VA", "lat": 39.04, "lon": -77.49, "mw": 200, "status": "operational"}, {"name": "Phoenix", "operator": "Oracle", "ticker": "ORCL", "state": "AZ", "lat": 33.44, "lon": -112.07, "mw": 200, "status": "operational"}, {"name": "Chicago", "operator": "Oracle", "ticker": "ORCL", "state": "IL", "lat": 41.85, "lon": -87.65, "mw": 200, "status": "operational"}, {"name": "Nashville", "operator": "Oracle", "ticker": "ORCL", "state": "TN", "lat": 36.17, "lon": -86.78, "mw": 200, "status": "under_construction"}, {"name": "Weehawken / Secaucus", "operator": "CoreWeave", "ticker": "", "state": "NJ", "lat": 40.77, "lon": -74.03, "mw": 300, "status": "operational"}, {"name": "Chicago (Elk Grove Village)", "operator": "CoreWeave", "ticker": "", "state": "IL", "lat": 41.99, "lon": -87.97, "mw": 300, "status": "operational"}, {"name": "Austin", "operator": "CoreWeave", "ticker": "", "state": "TX", "lat": 30.27, "lon": -97.74, "mw": 200, "status": "under_construction"}, {"name": "Moundsville", "operator": "CoreWeave", "ticker": "", "state": "WV", "lat": 39.92, "lon": -80.74, "mw": 500, "status": "announced"}, {"name": "Carmel", "operator": "CoreWeave", "ticker": "", "state": "IN", "lat": 39.98, "lon": -86.12, "mw": 200, "status": "under_construction"}, {"name": "Reno (TRIC)", "operator": "CoreWeave", "ticker": "", "state": "NV", "lat": 39.53, "lon": -119.55, "mw": 300, "status": "announced"}, {"name": "Abilene (Stargate Phase 1)", "operator": "Stargate", "ticker": "", "state": "TX", "lat": 32.45, "lon": -99.73, "mw": 1000, "status": "under_construction"}, {"name": "Dallas (Stargate / Oracle anchor)", "operator": "Stargate", "ticker": "", "state": "TX", "lat": 33.2, "lon": -96.65, "mw": 500, "status": "announced"}]
